name,lon,lat
Dashan,118.0517,32.0906
Lushan,118.3294,32.764
Dongshan,118.119,32.5791
Tanglong,118.4988,32.5883
Laian,118.4856,32.6411
Xiwang,118.1333,32.1
Wanshou,119.1567,32.7034
Zhangguang,118.5,32.1833
Xincheng,118.5711,32.6606
Caodian,117.47,32.66
Runyuan,117.7383,32.6235
Shangzhuang,117.8994,32.875
